[
    {
        "name": "Sebo Natal",
        "address": "Av. Rio Branco, 740 - Cidade Alta",
        "lat": -5.7880023,
        "lng": -35.2078426
    },
    {
        "name": "Sebo cata livros",
        "address": "Avenida Prudente de Morais, 2907 Av. Presidente Bandeira, 639, Av. Hermes da Fonseca, 804 - Lagoa Nova",
        "lat": -5.8078992,
        "lng": -35.2085319
    },
    {
        "name": "Sebo Vermelho.",
        "address": "Av. Rio Branco, 705 - Cidade Alta",
        "lat": -5.787552799999999,
        "lng": -35.207343
    },
    {
        "name": "Sebo Potiguar",
        "address": "Av. Rio Branco, 784 - Cidade Alta",
        "lat": -5.788726,
        "lng": -35.20820150000001
    },
    {
        "name": "SEBO BANCO DO LIVRO",
        "address": "Av. Rio Branco, 768 - Cidade Alta",
        "lat": -5.7884911,
        "lng": -35.2080771
    },
    {
        "name": "Sebo Lendo e Aprendendo",
        "address": "R. dos Canindés - Alecrim",
        "lat": -5.8026892,
        "lng": -35.2186573
    },
    {
        "name": "Sebo Universo Literário Natal",
        "address": "R. Ulisses Caldas, 105 A - Cidade Alta",
        "lat": -5.7846933,
        "lng": -35.206987
    },
    {
        "name": "Sebo Barros",
        "address": "R. Ulisses Caldas, 116 - Cidade Alta",
        "lat": -5.7848351,
        "lng": -35.2070452
    },
    {
        "name": "Sebo Norte",
        "address": "R. Vig. Bartolomeu, 594 A - Cidade Alta",
        "lat": -5.7854397,
        "lng": -35.2075923
    },
    {
        "name": "Sebo Balalaika",
        "address": "R. Vig. Bartolomeu, 565 - Cidade Alta",
        "lat": -5.7849201,
        "lng": -35.207237
    },
    {
        "name": "Sebo Potiguar",
        "address": "Av. Alto do Monte Belo, 101 - Neópolis",
        "lat": -5.8685983,
        "lng": -35.2160182
    },
    {
        "name": "Sebo Natal",
        "address": "R. Vig. Bartolomeu, 571 - Cidade Alta",
        "lat": -5.7850047,
        "lng": -35.2072749
    },
    {
        "name": "Seburubu",
        "address": "Av. Deodoro da Fonseca, 307 - Cidade Alta",
        "lat": -5.7819625,
        "lng": -35.2020313
    },
    {
        "name": "SEBO RENASCER",
        "address": "Av. Rio Branco - Cidade Alta",
        "lat": -5.7854275,
        "lng": -35.1996409
    },
    {
        "name": "SEBO NOVINHO",
        "address": "R. Jaguarari, 1433 - Barro Vermelho",
        "lat": -5.8004889,
        "lng": -35.2117954
    },
    {
        "name": "Sebo Literário Gajeiro Curió",
        "address": "Av. Hermes da Fonseca, 804 - Box 41 - Petrópolis",
        "lat": -5.7857432,
        "lng": -35.1948379
    },
    {
        "name": "Sebo Renascer",
        "address": "R. Cel. Cascudo, 132 - Cidade Alta",
        "lat": -5.7855305,
        "lng": -35.2077004
    },
    {
        "name": "Sebo Passarim",
        "address": "Av. Pres. Bandeira, 639 - Alecrim",
        "lat": -5.7995353,
        "lng": -35.2161942
    }
]